City_ID,City,Lat,Lng,Max Temp,Humidity,Cloudiness,Wind Speed,Country,Date
0,Torbay,47.6666,-52.7314,60.28,81,75,2.3,CA,2021-10-03 18:35:31
1,Rikitea,-23.1203,-134.9692,73.4,64,100,17.65,PF,2021-10-03 18:43:13
2,Hobart,-42.8794,147.3294,54.1,92,90,0.0,AU,2021-10-03 18:45:16
3,Ostrovnoy,68.0531,39.5131,44.51,87,21,20.83,RU,2021-10-03 18:38:23
4,Ikeda,34.8221,135.4298,71.4,84,1,2.91,JP,2021-10-03 18:47:37
5,Bintulu,3.1667,113.0333,75.61,100,40,0.0,MY,2021-10-03 18:47:37
6,Jamestown,42.097,-79.2353,69.44,63,90,7.0,US,2021-10-03 18:47:38
7,Campo Grande,-20.4428,-54.6464,90.95,43,40,13.8,BR,2021-10-03 18:47:38
8,Lavrentiya,65.5833,-171.0,23.27,71,16,3.83,RU,2021-10-03 18:43:32
9,Hithadhoo,-0.6,73.0833,83.23,75,86,16.98,MV,2021-10-03 18:47:38
10,Tuatapere,-46.1333,167.6833,44.82,94,100,3.27,NZ,2021-10-03 18:47:19
11,Codrington,-38.2667,141.9667,49.8,91,45,15.52,AU,2021-10-03 18:45:11
12,Yellowknife,62.456,-114.3525,52.41,51,20,11.5,CA,2021-10-03 18:47:39
13,Sungaipenuh,-2.0833,101.3833,65.52,96,100,0.65,ID,2021-10-03 18:37:40
14,Jalingo,8.8833,11.3667,80.58,72,18,3.44,NG,2021-10-03 18:47:09
15,Hasaki,35.7333,140.8333,64.8,81,0,8.66,JP,2021-10-03 18:47:40
16,Vaini,-21.2,-175.2,73.56,88,90,9.22,TO,2021-10-03 18:47:40
17,Altay,47.8667,88.1167,33.06,44,100,4.88,CN,2021-10-03 18:47:41
18,Yenagoa,4.9247,6.2642,76.53,91,100,4.99,NG,2021-10-03 18:47:41
19,Dali,25.7,100.1833,59.81,96,46,4.47,CN,2021-10-03 18:47:42
20,New Norfolk,-42.7826,147.0587,53.74,82,49,1.28,AU,2021-10-03 18:46:12
21,Waingapu,-9.6567,120.2641,75.29,81,75,5.91,ID,2021-10-03 18:46:22
22,Ushuaia,-54.8,-68.3,47.86,61,75,23.02,AR,2021-10-03 18:47:42
23,Ribeira Grande,38.5167,-28.7,73.8,83,20,11.5,PT,2021-10-03 18:47:43
24,Khatanga,71.9667,102.5,17.01,95,99,10.42,RU,2021-10-03 18:43:30
25,Kodiak,57.79,-152.4072,40.51,52,1,9.22,US,2021-10-03 18:43:36
26,East London,-33.0153,27.9116,56.34,82,20,0.0,ZA,2021-10-03 18:44:25
27,Kaitangata,-46.2817,169.8464,49.93,82,100,13.67,NZ,2021-10-03 18:47:44
28,Morondava,-20.2833,44.2833,76.89,81,0,10.74,MG,2021-10-03 18:38:36
29,Arraial Do Cabo,-22.9661,-42.0278,85.96,69,20,23.02,BR,2021-10-03 18:44:20
30,Parainen,60.3067,22.301,56.14,76,100,25.64,FI,2021-10-03 18:47:45
31,Sitka,57.0531,-135.33,42.69,81,75,5.75,US,2021-10-03 18:47:45
32,Barrow,71.2906,-156.7887,30.22,80,90,8.05,US,2021-10-03 18:46:49
33,Hilo,19.7297,-155.09,73.62,84,90,4.61,US,2021-10-03 18:43:08
34,Victor Harbor,-35.5667,138.6167,55.49,86,9,1.99,AU,2021-10-03 18:47:46
35,Bengkulu,-3.8004,102.2655,75.13,91,100,3.65,ID,2021-10-03 18:43:46
36,Saint-Francois,46.4154,3.9054,55.47,96,90,1.14,FR,2021-10-03 18:38:37
37,Jalu,29.0331,21.5482,75.96,40,0,7.78,LY,2021-10-03 18:35:05
38,Zhob,31.3411,69.4481,74.82,27,0,6.35,PK,2021-10-03 18:47:47
39,Petropavlovsk-Kamchatskiy,53.0452,158.6483,50.59,62,40,8.95,RU,2021-10-03 18:47:47
40,Port Hedland,-20.3167,118.5667,60.85,72,5,8.05,AU,2021-10-03 18:36:55
41,Yuty,-26.6,-56.25,66.99,95,100,10.63,PY,2021-10-03 18:47:48
42,Srednekolymsk,67.45,153.6833,23.22,94,95,4.25,RU,2021-10-03 18:33:30
43,Katsuura,35.1333,140.3,71.11,79,0,8.52,JP,2021-10-03 18:43:35
44,Alyangula,-13.8483,136.4192,80.47,78,90,5.75,AU,2021-10-03 18:47:48
45,Madang,-5.2246,145.7966,75.87,92,78,2.8,PG,2021-10-03 18:47:49
46,Pangnirtung,66.1451,-65.7125,32.0,100,75,8.05,CA,2021-10-03 18:47:49
47,Punta Arenas,-53.15,-70.9167,42.91,75,75,35.68,CL,2021-10-03 18:44:50
48,Beloha,-25.1667,45.05,71.94,79,2,1.83,MG,2021-10-03 18:47:17
49,Det Udom,14.906,105.0784,81.03,88,100,1.34,TH,2021-10-03 18:47:50
50,Caibarien,22.5206,-79.4669,81.72,71,41,14.14,CU,2021-10-03 18:47:50
51,Busselton,-33.65,115.3333,42.08,67,87,3.58,AU,2021-10-03 18:43:35
52,Qaanaaq,77.484,-69.3632,31.69,98,100,7.43,GL,2021-10-03 18:47:51
53,Puerto Ayora,-0.7393,-90.3518,76.96,76,30,11.86,EC,2021-10-03 18:43:44
54,Isangel,-19.55,169.2667,75.31,88,5,3.44,VU,2021-10-03 18:47:51
55,Tagawa,33.6333,130.8,72.75,62,0,3.76,JP,2021-10-03 18:47:52
56,Pozo Colorado,-23.4923,-58.7972,75.49,82,100,12.06,PY,2021-10-03 18:47:52
57,Bambous Virieux,-20.3428,57.7575,72.21,88,75,13.8,MU,2021-10-03 18:45:42
58,Cape Town,-33.9258,18.4232,57.27,55,20,12.66,ZA,2021-10-03 18:47:32
59,Ponta Do Sol,32.6667,-17.1,75.7,75,100,3.74,PT,2021-10-03 18:44:11
60,Castro,-24.7911,-50.0119,63.48,98,100,1.23,BR,2021-10-03 18:47:53
61,Charlestown,-32.95,151.6667,65.41,77,94,1.99,AU,2021-10-03 18:44:02
62,Nemuro,43.3236,145.575,61.18,86,83,31.29,JP,2021-10-03 18:47:54
63,Port Elizabeth,-33.918,25.5701,57.09,76,20,6.91,ZA,2021-10-03 18:44:20
64,Namibe,-15.1961,12.1522,62.37,83,67,4.09,AO,2021-10-03 18:38:44
65,Cuamba,-14.8031,36.5372,82.76,33,37,4.92,MZ,2021-10-03 18:47:54
66,Seymchan,62.8833,152.4333,27.88,75,100,12.62,RU,2021-10-03 18:47:55
67,Morristown,36.214,-83.2949,70.56,74,90,4.61,US,2021-10-03 18:46:43
68,Te Anau,-45.4167,167.7167,45.18,98,100,3.4,NZ,2021-10-03 18:47:55
69,Santa Maria,-29.6842,-53.8069,72.7,68,75,5.75,BR,2021-10-03 18:44:44
70,Butaritari,3.0707,172.7902,82.36,65,100,17.63,KI,2021-10-03 18:43:35
71,Avarua,-21.2078,-159.775,75.25,73,75,6.91,CK,2021-10-03 18:47:56
72,Saint-Philippe,-21.3585,55.7679,71.22,82,44,14.58,RE,2021-10-03 18:46:26
73,Iqaluit,63.7506,-68.5145,44.33,61,75,5.01,CA,2021-10-03 18:47:57
74,Huntingdon,52.3305,-0.1865,56.1,81,1,8.01,GB,2021-10-03 18:45:29
75,Santa Luzia,-19.7697,-43.8514,93.34,36,40,5.75,BR,2021-10-03 18:47:57
76,Kapaa,22.0752,-159.319,80.58,86,90,3.0,US,2021-10-03 18:43:42
77,Paamiut,61.994,-49.6678,39.99,72,0,8.34,GL,2021-10-03 18:44:55
78,Jacareacanga,-6.2222,-57.7528,97.45,31,99,4.83,BR,2021-10-03 18:47:58
79,Bluff,-46.6,168.3333,44.8,84,100,23.2,NZ,2021-10-03 18:47:58
80,Mont-De-Marsan,44.0,-0.6667,57.02,94,90,4.61,FR,2021-10-03 18:47:59
81,Atuona,-9.8,-139.0333,77.56,74,15,17.78,PF,2021-10-03 18:47:59
82,Tasiilaq,65.6145,-37.6368,41.16,55,0,5.86,GL,2021-10-03 18:45:01
83,Albany,42.6001,-73.9662,67.8,86,100,0.25,US,2021-10-03 18:44:19
84,Bolshaya Glushitsa,50.2406,43.5908,47.53,72,4,5.59,RU,2021-10-03 18:48:00
85,Severo-Kurilsk,50.6789,156.125,47.25,80,71,40.22,RU,2021-10-03 18:48:00
86,Haverfordwest,51.8017,-4.9691,58.59,82,19,5.99,GB,2021-10-03 18:48:01
87,Oneida,43.2001,-75.4663,64.33,93,90,9.22,US,2021-10-03 18:48:01
88,Benghazi,32.1167,20.0667,73.76,62,0,13.89,LY,2021-10-03 18:38:53
89,Lagoa,39.05,-27.9833,70.77,92,41,12.26,PT,2021-10-03 18:33:55
90,Port Alfred,-33.5906,26.891,56.8,73,48,7.9,ZA,2021-10-03 18:46:26
91,Englewood,39.6478,-104.9878,79.23,21,20,3.0,US,2021-10-03 18:48:02
92,Puerto Ayacucho,5.6639,-67.6236,90.52,57,50,4.34,VE,2021-10-03 18:39:01
93,Kununurra,-15.7667,128.7333,71.58,78,68,2.3,AU,2021-10-03 18:39:13
94,Chimbote,-9.0853,-78.5783,67.77,73,89,12.53,PE,2021-10-03 18:39:17
95,Douentza,14.9951,-2.9517,95.97,22,83,4.72,ML,2021-10-03 18:48:03
96,Stornoway,58.2093,-6.3865,53.92,87,75,9.22,GB,2021-10-03 18:48:03
97,Ngunguru,-35.6167,174.5,62.17,98,100,12.91,NZ,2021-10-03 18:48:03
98,Vestmannaeyjar,63.4427,-20.2734,50.99,71,40,4.61,IS,2021-10-03 18:36:01
99,Malko Tarnovo,41.9833,27.5333,53.58,96,19,2.59,BG,2021-10-03 18:48:04
100,Sao Filipe,14.8961,-24.4956,80.38,76,100,7.02,CV,2021-10-03 18:47:00
101,Mbaiki,3.8678,17.9892,70.66,97,52,1.03,CF,2021-10-03 18:48:04
102,Kigoma,-4.8769,29.6267,77.41,70,89,13.33,TZ,2021-10-03 18:48:05
103,Longyearbyen,78.2186,15.6401,37.24,93,75,4.61,SJ,2021-10-03 18:48:05
104,Chokurdakh,70.6333,147.9167,19.99,96,96,8.68,RU,2021-10-03 18:45:49
105,Pecos,31.4229,-103.4932,81.05,44,1,4.61,US,2021-10-03 18:45:18
106,Ust-Tarka,55.5672,75.705,32.04,88,100,5.12,RU,2021-10-03 18:48:06
107,Upernavik,72.7868,-56.1549,30.74,92,100,4.88,GL,2021-10-03 18:48:06
108,Hermanus,-34.4187,19.2345,54.9,71,37,7.11,ZA,2021-10-03 18:43:36
109,Mataura,-46.1927,168.8643,44.47,90,100,7.27,NZ,2021-10-03 18:48:07
110,Broome,42.2506,-75.833,65.21,80,90,5.01,US,2021-10-03 18:48:07
111,Tura,25.5198,90.2201,71.78,98,99,4.03,IN,2021-10-03 18:44:53
112,Lebu,-37.6167,-73.65,52.74,70,1,22.24,CL,2021-10-03 18:43:47
113,Senanga,-16.1167,23.2667,75.87,51,45,6.98,ZM,2021-10-03 18:48:08
114,Taguatinga,-12.3857,-46.5711,103.5,14,72,1.21,BR,2021-10-03 18:48:08
115,Bredasdorp,-34.5322,20.0403,50.29,87,13,0.0,ZA,2021-10-03 18:43:13
116,Fergus Falls,46.283,-96.0776,73.18,46,1,8.05,US,2021-10-03 18:48:31
117,Saldanha,-33.0117,17.9442,55.45,70,0,24.52,ZA,2021-10-03 18:48:31
118,Areado,-21.3586,-46.1456,85.84,61,94,6.15,BR,2021-10-03 18:48:31
119,Seoul,37.5683,126.9778,71.04,77,75,8.05,KR,2021-10-03 18:45:12
120,Tarabuco,-19.1667,-64.9167,65.46,35,18,11.36,BO,2021-10-03 18:48:32
121,Hervey Bay,-25.2986,152.8535,73.04,94,9,14.5,AU,2021-10-03 18:48:34
122,Puerto Leguizamo,-0.1934,-74.7819,83.16,78,100,3.31,CO,2021-10-03 18:48:34
123,Port Hardy,50.6996,-127.4199,51.98,71,40,6.91,CA,2021-10-03 18:45:29
124,Vuktyl,63.8567,57.3094,30.9,85,66,1.05,RU,2021-10-03 18:48:35
125,Tuktoyaktuk,69.4541,-133.0374,33.8,100,90,17.27,CA,2021-10-03 18:48:35
126,Asosa,10.0667,34.5333,61.02,96,100,2.28,ET,2021-10-03 18:48:35
127,Aklavik,68.2191,-135.0107,34.52,93,90,12.66,CA,2021-10-03 18:48:36
128,Oskarshamn,57.2645,16.4484,60.57,68,100,17.27,SE,2021-10-03 18:48:36
129,Rocha,-34.4833,-54.3333,56.7,54,16,14.76,UY,2021-10-03 18:48:37
130,Lake Havasu City,34.4839,-114.3224,91.09,12,1,1.01,US,2021-10-03 18:48:37
131,Oshkosh,44.0247,-88.5426,72.03,93,90,1.99,US,2021-10-03 18:48:37
132,Cayenne,4.9333,-52.3333,89.64,72,75,5.01,GF,2021-10-03 18:48:38
133,Belaya Gora,68.5333,146.4167,20.03,87,90,4.38,RU,2021-10-03 18:38:41
134,Saskylakh,71.9167,114.0833,16.77,93,98,10.45,RU,2021-10-03 18:43:38
135,Aripuana,-9.1667,-60.6333,93.45,41,95,1.19,BR,2021-10-03 18:48:38
136,Nanga Eboko,4.6833,12.3667,69.53,95,53,1.92,CM,2021-10-03 18:48:39
137,Airai,-8.9266,125.4092,59.22,71,12,1.16,TL,2021-10-03 18:43:50
138,Maldonado,-34.6667,-54.9167,58.39,57,8,14.74,UY,2021-10-03 18:48:39
139,Mar Del Plata,-38.0023,-57.5575,55.42,49,0,21.0,AR,2021-10-03 18:44:53
140,Hofn,64.2539,-15.2082,47.35,80,100,18.34,IS,2021-10-03 18:48:40
141,Krasnoselkup,65.7,82.4667,21.49,89,44,9.46,RU,2021-10-03 18:44:52
142,Palmer,42.1584,-72.3287,74.68,69,90,0.0,US,2021-10-03 18:48:22
143,Agua Verde,22.9,-106.05,91.04,68,40,6.91,MX,2021-10-03 18:48:40
144,Chuy,-33.6971,-53.4616,61.56,55,26,12.21,UY,2021-10-03 18:48:41
145,Zhigansk,66.7697,123.3711,25.56,85,93,6.2,RU,2021-10-03 18:47:16
146,Shingu,33.7333,135.9833,72.52,84,89,3.42,JP,2021-10-03 18:38:51
147,Milkovo,54.7167,158.6167,41.14,92,100,7.87,RU,2021-10-03 18:45:05
148,Bani,18.2833,-70.3333,77.74,77,100,3.91,DO,2021-10-03 18:48:42
149,Souillac,-20.5167,57.5167,72.36,88,75,13.8,MU,2021-10-03 18:43:45
150,Ortakoy,38.7373,34.0387,50.25,56,0,2.1,TR,2021-10-03 18:48:42
151,Barra Patuca,15.8,-84.2833,84.9,68,17,6.31,HN,2021-10-03 18:45:51
152,High Level,58.5169,-117.136,42.91,61,75,6.91,CA,2021-10-03 18:48:43
153,Nikolskoye,59.7035,30.7861,50.4,85,0,6.71,RU,2021-10-03 18:48:43
154,Chicama,-7.8447,-79.1469,63.14,59,28,11.88,PE,2021-10-03 18:48:44
155,Port Augusta,-32.5,137.7667,55.54,88,0,7.52,AU,2021-10-03 18:48:44
156,Ketchikan,55.3422,-131.6461,45.07,76,40,9.22,US,2021-10-03 18:44:49
157,Filadelfia,39.9523,-75.1638,84.47,62,75,5.01,US,2021-10-03 18:46:20
158,Ca Mau,9.1769,105.15,76.26,91,100,3.24,VN,2021-10-03 18:48:15
159,Kartaly,53.0522,60.6467,33.51,81,9,8.9,RU,2021-10-03 18:48:45
160,Georgetown,5.4112,100.3354,81.9,87,20,5.01,MY,2021-10-03 18:48:45
161,Norman Wells,65.282,-126.8329,35.64,93,90,19.57,CA,2021-10-03 18:48:46
162,Gazli,40.1333,63.45,54.16,32,0,10.83,UZ,2021-10-03 18:48:46
163,Klaksvik,62.2266,-6.589,47.32,94,100,38.59,FO,2021-10-03 18:48:47
164,Grindavik,63.8424,-22.4338,48.15,87,0,20.71,IS,2021-10-03 18:48:47
165,Sackville,45.9188,-64.3846,59.58,56,96,7.74,CA,2021-10-03 18:48:47
166,Tapes,-30.6733,-51.3958,66.29,79,100,12.71,BR,2021-10-03 18:48:48
167,Victoria,22.2855,114.1577,85.32,78,86,1.01,HK,2021-10-03 18:45:17
168,Rosario,-32.9468,-60.6393,68.07,28,0,3.0,AR,2021-10-03 18:48:48
169,Saint George,37.1041,-113.5841,88.27,21,1,3.0,US,2021-10-03 18:48:27
170,Hilton Head Island,32.2163,-80.7526,86.11,64,40,5.75,US,2021-10-03 18:48:49
171,Pisco,-13.7,-76.2167,68.05,64,40,17.27,PE,2021-10-03 18:48:49
172,Sakaiminato,35.55,133.2333,66.18,72,0,9.22,JP,2021-10-03 18:48:50
173,Moree,-29.4667,149.85,59.02,63,2,4.61,AU,2021-10-03 18:48:50
174,Agadez,19.75,10.25,85.68,16,0,5.64,NE,2021-10-03 18:48:51
175,Menongue,-14.6585,17.691,69.58,18,3,2.71,AO,2021-10-03 18:48:51
176,Naifaru,5.4444,73.3657,82.62,76,35,17.58,MV,2021-10-03 18:48:51
177,Carnarvon,-24.8667,113.6333,62.67,77,0,16.11,AU,2021-10-03 18:48:52
178,Ancud,-41.8697,-73.8203,51.33,66,99,11.41,CL,2021-10-03 18:48:52
179,Cherskiy,68.75,161.3,17.42,97,96,3.53,RU,2021-10-03 18:44:42
180,Vardo,70.3705,31.1107,49.98,76,0,19.57,NO,2021-10-03 18:48:53
181,Geraldton,-28.7667,114.6,46.81,93,40,2.3,AU,2021-10-03 18:48:53
182,Stonewall,50.1344,-97.3268,72.01,34,90,8.25,CA,2021-10-03 18:48:50
183,Yankton,42.8711,-97.3973,73.65,33,1,3.44,US,2021-10-03 18:48:54
184,Da Nang,16.0678,108.2208,80.58,83,20,1.14,VN,2021-10-03 18:46:54
185,Fortuna,40.5982,-124.1573,61.72,82,20,8.05,US,2021-10-03 18:44:31
186,Necochea,-38.5473,-58.7368,53.04,59,6,21.14,AR,2021-10-03 18:45:21
187,Innisfail,-17.5333,146.0333,70.92,86,14,3.49,AU,2021-10-03 18:48:50
188,Zeya,53.75,127.2667,30.52,76,0,5.44,RU,2021-10-03 18:48:54
189,Kovdor,67.5662,30.4758,43.88,84,99,9.4,RU,2021-10-03 18:48:55
190,Moron,-34.6534,-58.6198,63.01,35,96,7.0,AR,2021-10-03 18:48:55
191,Turukhansk,65.8167,87.9833,30.13,98,99,4.12,RU,2021-10-03 18:48:55
192,Leningradskiy,69.3833,178.4167,17.1,84,96,4.63,RU,2021-10-03 18:48:56
193,Claveria,18.6074,121.0832,79.72,88,100,12.28,PH,2021-10-03 18:48:56
194,Kintinku,-5.8833,35.2333,79.9,32,100,9.15,TZ,2021-10-03 18:48:56
195,Aksu,41.1231,80.2644,53.17,53,100,7.52,CN,2021-10-03 18:48:57
196,Nantucket,41.2835,-70.0995,73.54,76,40,14.97,US,2021-10-03 18:45:32
197,Bandarbeyla,9.4942,50.8122,78.6,86,97,21.5,SO,2021-10-03 18:36:57
198,Shemgang,27.2169,90.6579,57.88,96,100,2.62,BT,2021-10-03 18:48:58
199,Bondoukou,8.0333,-2.8,76.24,84,6,2.68,CI,2021-10-03 18:48:58
200,Boa Vista,2.8197,-60.6733,93.18,43,75,6.91,BR,2021-10-03 18:45:42
201,Mujiayingzi,42.1167,118.7833,48.96,68,100,5.23,CN,2021-10-03 18:48:59
202,Provideniya,64.3833,-173.3,26.19,80,53,2.57,RU,2021-10-03 18:49:00
203,Kieta,-6.2167,155.6333,78.1,83,100,3.71,PG,2021-10-03 18:49:00
204,Nouadhibou,20.931,-17.0347,73.38,78,0,17.27,MR,2021-10-03 18:49:01
205,Yermish,54.7678,42.2711,44.53,73,100,4.23,RU,2021-10-03 18:49:01
206,Husavik,66.0449,-17.3389,44.51,99,100,17.38,IS,2021-10-03 18:49:02
207,Sept-Iles,50.2001,-66.3821,54.12,62,20,3.44,CA,2021-10-03 18:46:47
208,Deputatskiy,69.3,139.9,16.83,93,100,4.5,RU,2021-10-03 18:49:02
209,Tateyama,34.9833,139.8667,71.02,75,5,7.83,JP,2021-10-03 18:49:03
210,Waipawa,-41.4122,175.5153,51.46,92,100,3.65,NZ,2021-10-03 18:49:03
211,Tiksi,71.6872,128.8694,24.51,90,96,10.25,RU,2021-10-03 18:49:04
212,Broken Hill,-31.95,141.4333,53.31,58,0,11.5,AU,2021-10-03 18:49:04
213,Balikpapan,-1.2675,116.8289,76.75,89,100,7.9,ID,2021-10-03 18:49:05
214,Natal,-5.795,-35.2094,86.65,51,0,18.41,BR,2021-10-03 18:49:05
215,Mount Gambier,-37.8333,140.7667,49.91,93,75,11.5,AU,2021-10-03 18:49:05
216,Komsomolskiy,40.4272,71.7189,57.92,77,75,9.22,UZ,2021-10-03 18:49:06
217,Thompson,55.7435,-97.8558,60.96,63,75,2.3,CA,2021-10-03 18:49:06
218,Cao Bang,22.6667,106.25,72.84,98,11,1.88,VN,2021-10-03 18:49:07
219,Marawi,7.9986,124.2928,66.65,98,100,2.98,PH,2021-10-03 18:37:42
220,Vidim,56.4088,103.1106,33.15,95,100,0.78,RU,2021-10-03 18:49:07
221,Bainbridge,47.6262,-122.5212,59.0,82,90,1.99,US,2021-10-03 18:49:08
222,Junagarh,19.8667,82.9333,75.49,91,96,3.51,IN,2021-10-03 18:49:08
223,Altrincham,53.3875,-2.3485,55.42,85,22,8.01,GB,2021-10-03 18:48:31
224,Narsaq,60.9167,-46.05,44.82,57,0,6.17,GL,2021-10-03 18:48:26
225,San Joaquin,37.9333,-121.3011,86.99,16,0,3.22,US,2021-10-03 18:49:09
226,Boksitogorsk,59.474,33.8485,41.31,85,7,5.26,RU,2021-10-03 18:49:09
227,Sandpoint,48.2766,-116.5533,66.56,57,8,3.87,US,2021-10-03 18:47:19
228,Yulara,-25.2406,130.9889,55.24,38,0,6.91,AU,2021-10-03 18:49:09
229,Pochutla,15.7432,-96.4661,86.83,57,15,5.86,MX,2021-10-03 18:45:32
230,Yuncheng,35.0231,110.9928,64.24,85,100,4.97,CN,2021-10-03 18:49:10
231,Ust-Omchug,61.15,149.6333,19.08,96,100,8.43,RU,2021-10-03 18:49:10
232,Koshki,54.2091,50.4677,45.84,84,100,5.1,RU,2021-10-03 18:49:11
233,Solnechnyy,50.7214,136.6319,34.5,66,2,4.76,RU,2021-10-03 18:49:11
234,Nouakchott,18.0858,-15.9785,84.13,75,1,13.27,MR,2021-10-03 18:49:12
235,San Patricio,28.017,-97.5169,90.32,54,82,8.05,US,2021-10-03 18:49:12
236,Carson City,39.1638,-119.7674,78.04,15,1,0.0,US,2021-10-03 18:49:12
237,Laranjeiras Do Sul,-25.4078,-52.4161,62.98,94,100,2.93,BR,2021-10-03 18:49:13
238,Pinawa,50.1489,-95.8811,70.95,33,100,4.41,CA,2021-10-03 18:48:56
239,Ewa Beach,21.3156,-158.0072,79.68,80,40,5.75,US,2021-10-03 18:49:13
240,Fakel,57.6325,53.0252,34.56,82,59,4.52,RU,2021-10-03 18:49:14
241,Aguimes,27.9054,-15.4461,72.66,70,20,24.16,ES,2021-10-03 18:49:15
242,Mbini,1.574,9.6134,77.99,87,71,6.11,GQ,2021-10-03 18:49:15
243,Hami,42.8,93.45,48.45,33,0,6.17,CN,2021-10-03 18:49:16
244,Henties Bay,-22.116,14.2845,54.86,89,0,4.07,NA,2021-10-03 18:45:59
245,Poum,-20.2333,164.0167,74.19,87,0,14.94,NC,2021-10-03 18:44:39
246,Katherine,-14.4667,132.2667,82.72,69,14,6.91,AU,2021-10-03 18:49:16
247,Sabang,5.8933,95.3214,81.75,77,96,10.67,ID,2021-10-03 18:44:46
248,Natitingou,10.3042,1.3796,80.65,86,55,1.3,BJ,2021-10-03 18:49:18
249,Dong Hoi,17.4833,106.6,79.38,81,13,3.76,VN,2021-10-03 18:45:08
250,Hambantota,6.1241,81.1185,79.14,100,0,4.61,LK,2021-10-03 18:49:18
251,Kutum,14.2,24.6667,82.42,24,78,4.05,SD,2021-10-03 18:49:19
252,Panique,12.4797,122.0153,80.44,83,100,9.24,PH,2021-10-03 18:49:19
253,Cidreira,-30.1811,-50.2056,67.95,84,100,8.37,BR,2021-10-03 18:49:19
254,Meulaboh,4.1363,96.1285,75.38,86,22,3.85,ID,2021-10-03 18:46:30
255,Naze,28.3667,129.4833,77.34,63,0,20.11,JP,2021-10-03 18:49:20
256,Kruisfontein,-34.0033,24.7314,54.88,72,94,6.13,ZA,2021-10-03 18:49:20
257,Tupik,54.4253,119.9327,28.85,82,14,1.52,RU,2021-10-03 18:49:20
258,Camacupa,-12.0167,17.4833,75.07,22,11,1.66,AO,2021-10-03 18:49:21
259,Kralendijk,12.15,-68.2667,89.58,62,40,25.32,BQ,2021-10-03 18:49:21
260,Tamuin,21.9833,-98.75,85.57,68,14,5.21,MX,2021-10-03 18:49:21
261,Mackay,-21.15,149.2,73.38,88,15,9.22,AU,2021-10-03 18:49:22
262,Viladecans,41.314,2.0143,75.83,80,20,1.99,ES,2021-10-03 18:49:22
263,Ponta Pora,-22.5361,-55.7256,80.51,69,75,10.36,BR,2021-10-03 18:46:46
264,Esperance,-33.8667,121.9,42.64,70,72,9.42,AU,2021-10-03 18:48:20
265,Domingos Martins,-20.3633,-40.6592,79.61,35,6,8.41,BR,2021-10-03 18:49:23
266,Malinovskiy,61.1953,62.8397,28.4,85,11,4.43,RU,2021-10-03 18:49:23
267,Mezhova,48.2532,36.7347,47.98,47,7,9.31,UA,2021-10-03 18:49:23
268,Valga,57.7778,26.0473,48.0,87,97,1.01,EE,2021-10-03 18:49:24
269,Kenai,60.5544,-151.2583,40.14,90,75,0.0,US,2021-10-03 18:49:24
270,Galesong,-5.3166,119.3661,77.02,77,100,7.4,ID,2021-10-03 18:49:25
271,Bosaso,11.2842,49.1816,88.29,64,36,1.88,SO,2021-10-03 18:49:25
272,Kawalu,-7.3817,108.2082,70.74,94,66,1.57,ID,2021-10-03 18:49:25
273,Pitimbu,-7.4706,-34.8086,86.59,71,6,12.5,BR,2021-10-03 18:46:06
274,Nishihara,26.1842,127.7558,80.26,71,40,13.8,JP,2021-10-03 18:49:26
275,Oudtshoorn,-33.5907,22.2014,48.56,77,39,4.34,ZA,2021-10-03 18:49:26
276,Sayyan,15.1718,44.3244,62.13,52,96,3.15,YE,2021-10-03 18:49:27
277,Brownwood,31.7093,-98.9912,83.52,39,1,8.05,US,2021-10-03 18:49:27
278,Port Macquarie,-31.4333,152.9167,57.16,67,100,6.53,AU,2021-10-03 18:49:27
279,Flinders,-34.5833,150.8552,62.8,79,96,1.01,AU,2021-10-03 18:49:28
280,Shirvan,39.9509,48.8994,65.14,63,100,5.53,AZ,2021-10-03 18:49:28
281,Lamar,33.6668,-95.5836,84.97,55,1,9.22,US,2021-10-03 18:49:29
282,Cabo San Lucas,22.8909,-109.9124,92.61,62,20,6.91,MX,2021-10-03 18:48:46
283,Port Blair,11.6667,92.75,80.38,81,20,6.31,IN,2021-10-03 18:49:29
284,Sorland,67.667,12.6934,53.67,83,100,19.86,NO,2021-10-03 18:49:30
285,Tessalit,20.1986,1.0114,91.74,11,98,11.48,ML,2021-10-03 18:49:30
286,Varena,54.2167,24.5667,52.48,70,100,10.71,LT,2021-10-03 18:49:31
287,Adrar,20.5022,-10.0711,96.66,10,18,3.87,MR,2021-10-03 18:47:42
288,San Quintin,30.4833,-115.95,80.6,39,100,8.25,MX,2021-10-03 18:49:31
289,Tucuman,-26.8241,-65.2226,57.2,51,100,0.0,AR,2021-10-03 18:49:31
290,Manavalakurichi,8.1333,77.3,80.69,86,100,8.23,IN,2021-10-03 18:49:32
291,Oyama,36.3,139.8,73.58,75,75,1.79,JP,2021-10-03 18:49:32
292,Yokadouma,3.5167,15.05,70.38,96,15,1.14,CM,2021-10-03 18:49:33
293,Progreso,21.2833,-89.6667,86.77,61,24,14.18,MX,2021-10-03 18:49:33
294,Road Town,18.4167,-64.6167,87.89,66,40,11.5,VG,2021-10-03 18:49:23
295,Ust-Nera,64.5667,143.2,22.59,92,23,2.91,RU,2021-10-03 18:49:33
296,Maceio,-9.6658,-35.7353,85.44,65,75,14.97,BR,2021-10-03 18:49:34
297,Miri,4.4148,114.0089,75.34,94,20,3.44,MY,2021-10-03 18:49:34
298,Kavieng,-2.5744,150.7967,80.92,74,100,2.73,PG,2021-10-03 18:49:35
299,Mormugao,15.4,73.8,79.95,87,19,5.32,IN,2021-10-03 18:49:35
300,Baykit,61.67,96.37,34.75,94,98,1.05,RU,2021-10-03 18:48:04
301,Belmopan,17.25,-88.7667,88.88,59,26,5.48,BZ,2021-10-03 18:48:30
302,Bathsheba,13.2167,-59.5167,90.21,58,20,23.02,BB,2021-10-03 18:49:36
303,Nome,64.5011,-165.4064,21.27,86,1,0.0,US,2021-10-03 18:49:01
304,Tautira,-17.7333,-149.15,80.62,77,10,9.53,PF,2021-10-03 18:49:36
305,Tual,-5.6667,132.75,80.73,66,100,6.64,ID,2021-10-03 18:49:37
306,Maltahohe,-24.8333,16.9833,62.82,16,99,13.06,NA,2021-10-03 18:49:37
307,Talnakh,69.4865,88.3972,17.92,96,99,1.34,RU,2021-10-03 18:49:37
308,Lompoc,34.6391,-120.4579,97.11,46,1,4.61,US,2021-10-03 18:46:49
309,Ricany,49.9917,14.6543,59.45,80,0,9.22,CZ,2021-10-03 18:49:38
310,Aquiraz,-3.9014,-38.3911,88.21,58,0,15.14,BR,2021-10-03 18:46:24
311,Del Rio,29.3627,-100.8968,86.81,63,20,3.44,US,2021-10-03 18:48:51
312,Povenets,62.8487,34.8262,45.52,92,0,7.9,RU,2021-10-03 18:49:39
313,Tari,12.4086,4.4914,86.88,46,10,7.52,NG,2021-10-03 18:49:39
314,Bikaner,28.0167,73.3,88.11,48,0,9.62,IN,2021-10-03 18:49:39
315,Valparaiso,-33.0393,-71.6273,68.23,41,0,16.11,CL,2021-10-03 18:49:40
316,Poronaysk,49.2167,143.1167,44.33,91,100,4.27,RU,2021-10-03 18:49:40
317,Tel Aviv-Yafo,32.0805,34.7805,78.98,68,40,3.44,IL,2021-10-03 18:49:41
318,Salalah,17.0151,54.0924,82.49,83,75,8.05,OM,2021-10-03 18:49:41
319,Ternovka,51.678,41.6375,43.99,68,0,6.89,RU,2021-10-03 18:49:41
320,Dwarka,22.2394,68.9678,82.27,82,7,10.47,IN,2021-10-03 18:49:42
321,Chaumont,48.1167,5.1333,53.89,95,100,8.32,FR,2021-10-03 18:49:42
322,Saint-Pierre,-21.3393,55.4781,71.29,73,20,3.44,RE,2021-10-03 18:49:43
323,Tynda,55.1667,124.7167,25.65,84,6,3.89,RU,2021-10-03 18:49:43
324,Labuhan,-6.8844,112.2051,78.17,76,100,11.77,ID,2021-10-03 18:49:43
325,Gizo,-8.103,156.8419,81.63,78,12,7.18,SB,2021-10-03 18:49:44
326,Bereda,43.2686,-7.5406,55.15,95,11,2.37,ES,2021-10-03 18:49:44
327,Umm Lajj,25.0213,37.2685,81.81,63,5,10.4,SA,2021-10-03 18:49:45
328,Ahuimanu,21.4447,-157.8378,79.45,78,75,9.22,US,2021-10-03 18:49:45
329,Taitung,22.7583,121.1444,78.1,63,13,7.63,TW,2021-10-03 18:49:45
330,Havre-Saint-Pierre,50.2334,-63.5986,55.76,58,90,3.44,CA,2021-10-03 18:49:46
331,Redmond,47.674,-122.1215,58.96,88,100,3.0,US,2021-10-03 18:47:46
332,Solntsevo,51.4185,36.7499,44.94,76,0,6.96,RU,2021-10-03 18:49:46
333,Visnes,59.3556,5.2242,58.57,67,40,25.32,NO,2021-10-03 18:49:46
334,Praia Da Vitoria,38.7333,-27.0667,74.75,88,20,6.44,PT,2021-10-03 18:49:47
335,Antofagasta,-23.65,-70.4,60.08,69,27,12.82,CL,2021-10-03 18:49:47
336,Muros,42.7762,-9.0603,61.84,84,21,6.49,ES,2021-10-03 18:49:47
337,Vestmanna,62.1564,-7.1664,45.52,100,90,46.04,FO,2021-10-03 18:49:48
338,Shaunavon,49.6501,-108.4181,69.58,16,11,17.16,CA,2021-10-03 18:49:48
339,Sasolburg,-26.8136,27.817,60.49,24,0,7.14,ZA,2021-10-03 18:49:49
340,Candelaria,13.9311,121.4233,78.39,96,100,4.38,PH,2021-10-03 18:49:49
341,Shimoda,34.6667,138.95,67.1,80,24,0.92,JP,2021-10-03 18:46:13
342,Moose Factory,51.2585,-80.6094,60.8,67,1,10.36,CA,2021-10-03 18:49:50
343,Manado,1.487,124.8455,75.97,94,40,0.0,ID,2021-10-03 18:49:50
344,Yaan,7.3833,8.5667,77.52,81,3,4.65,NG,2021-10-03 18:49:50
345,Hualmay,-11.0964,-77.6139,67.01,71,26,12.59,PE,2021-10-03 18:49:51
346,Samana,19.2056,-69.3369,87.76,74,75,6.91,DO,2021-10-03 18:49:51
347,Trincomalee,8.5711,81.2335,79.5,83,96,9.91,LK,2021-10-03 18:49:51
348,Grand Gaube,-20.0064,57.6608,72.37,75,4,7.0,MU,2021-10-03 18:49:52
349,San Jose,37.3394,-121.895,92.89,29,40,3.44,US,2021-10-03 18:47:40
350,Taoudenni,22.6783,-3.9836,99.7,8,81,10.09,ML,2021-10-03 18:49:52
351,Itoman,26.1247,127.6694,80.98,70,20,11.5,JP,2021-10-03 18:49:53
352,Surt,31.2089,16.5887,77.45,66,0,15.21,LY,2021-10-03 18:49:53
353,Lookan,5.037,120.1027,81.54,77,100,2.95,PH,2021-10-03 18:49:53
354,Kapoeta,4.7717,33.5903,77.07,70,95,5.93,SS,2021-10-03 18:49:54
355,Bad Nauheim,50.3646,8.7386,64.83,83,100,7.65,DE,2021-10-03 18:49:54
356,Linxia,35.6003,103.2064,38.68,100,100,2.21,CN,2021-10-03 18:49:55
357,Lorengau,-2.0226,147.2712,79.07,82,94,3.83,PG,2021-10-03 18:49:55
358,Taltal,-25.4,-70.4833,64.33,64,19,9.53,CL,2021-10-03 18:49:55
359,Portland,45.5234,-122.6762,69.04,65,75,3.0,US,2021-10-03 18:48:44
360,Armeria,18.9333,-103.9667,91.17,59,59,6.87,MX,2021-10-03 18:49:56
361,Jibuti,11.5,42.5,85.42,57,11,5.41,DJ,2021-10-03 18:49:56
362,Biak,-0.9131,122.8766,75.61,80,93,7.81,ID,2021-10-03 18:49:57
363,Zapolyarnyy,69.4154,30.8136,47.48,80,100,18.39,RU,2021-10-03 18:49:57
364,Skjervoy,70.0311,20.9714,53.6,70,100,20.67,NO,2021-10-03 18:49:58
365,Manggar,-2.8833,108.2667,79.63,81,100,4.09,ID,2021-10-03 18:49:58
366,Goderich,43.7501,-81.7165,70.21,88,99,3.44,CA,2021-10-03 18:45:30
367,Korla,41.7597,86.1469,50.27,43,0,3.87,CN,2021-10-03 18:49:59
368,Porto Novo,6.4965,2.6036,82.22,85,9,5.82,BJ,2021-10-03 18:49:59
369,Arawa,-6.2132,155.5367,76.17,91,100,3.33,PG,2021-10-03 18:50:00
370,Buta,2.7858,24.73,73.72,83,88,2.57,CD,2021-10-03 18:50:00
371,Tarko-Sale,64.9225,77.785,26.37,87,45,7.07,RU,2021-10-03 18:50:00
372,Yakeshi,49.2833,120.7333,34.9,97,100,4.29,CN,2021-10-03 18:50:01
373,Assiniboia,49.6334,-105.9845,71.51,18,4,13.8,CA,2021-10-03 18:50:02
374,Ilulissat,69.2167,-51.1,28.08,69,100,2.95,GL,2021-10-03 18:50:04
375,Sao Felix Do Xingu,-6.6447,-51.995,89.65,47,100,3.65,BR,2021-10-03 18:50:04
376,Diapaga,12.0708,1.7889,84.54,54,74,4.23,BF,2021-10-03 18:50:05
377,Sambava,-14.2667,50.1667,71.6,88,22,7.78,MG,2021-10-03 18:50:05
378,Dingle,10.9995,122.6711,75.24,94,100,6.38,PH,2021-10-03 18:47:59
379,Sioux Lookout,50.1001,-91.917,59.38,72,75,3.44,CA,2021-10-03 18:50:05
380,Nizhniy Kuranakh,58.8353,125.4869,19.87,97,39,3.47,RU,2021-10-03 18:50:06
381,Cuenca,-2.8833,-78.9833,75.33,35,75,11.5,EC,2021-10-03 18:50:06
382,Lingao,19.9103,109.6859,77.65,89,10,7.49,CN,2021-10-03 18:50:07
383,Puerto Palomas,31.7667,-107.6167,76.33,33,0,14.85,MX,2021-10-03 18:50:07
384,Trinidad,-14.8333,-64.9,96.78,46,40,16.11,BO,2021-10-03 18:50:07
385,Ust-Kut,56.7938,105.7672,34.68,88,100,1.7,RU,2021-10-03 18:50:08
386,Tabas,33.5959,56.9244,73.58,19,0,6.67,IR,2021-10-03 18:50:08
387,Anori,-3.7728,-61.6442,94.55,42,96,3.76,BR,2021-10-03 18:50:09
388,San Cristobal,7.7669,-72.225,82.58,51,24,7.05,VE,2021-10-03 18:49:09
389,San Angelo,31.4638,-100.437,84.29,58,75,7.0,US,2021-10-03 18:48:00
390,Sechura,-5.5569,-80.8222,77.88,53,21,14.41,PE,2021-10-03 18:49:57
391,Hailey,43.5196,-114.3153,67.89,21,75,8.01,US,2021-10-03 18:50:10
392,Zhuanghe,39.7008,122.9911,69.28,97,100,7.36,CN,2021-10-03 18:50:10
393,Shaowu,27.3409,117.4831,68.45,87,0,3.27,CN,2021-10-03 18:50:11
394,Marsa Matruh,31.3525,27.2453,73.6,56,20,9.22,EG,2021-10-03 18:50:11
395,Santa Ines,-3.6667,-45.38,93.22,38,56,6.26,BR,2021-10-03 18:50:11
396,Samarai,-10.6167,150.6667,79.77,82,35,5.26,PG,2021-10-03 18:50:12
397,Omsukchan,62.5333,155.8,25.18,92,100,10.49,RU,2021-10-03 18:49:13
398,Port Lincoln,-34.7333,135.8667,52.25,67,76,25.84,AU,2021-10-03 18:50:13
399,Tongzi,28.7829,105.0877,78.53,78,13,3.04,CN,2021-10-03 18:50:13
400,Mahanoro,-19.9,48.8,70.45,88,23,7.07,MG,2021-10-03 18:50:13
401,Kluang,2.0251,103.3328,76.73,94,67,0.85,MY,2021-10-03 18:50:14
402,Kaeo,-35.1,173.7833,62.33,97,100,11.86,NZ,2021-10-03 18:49:44
403,Oktyabrskoye,43.0645,44.7417,48.34,93,100,2.24,RU,2021-10-03 18:50:14
404,Wufeng,27.45,104.8333,58.48,94,30,7.09,CN,2021-10-03 18:50:15
405,Quesnel,52.9999,-122.5029,46.9,76,1,0.0,CA,2021-10-03 18:45:30
406,Hearst,49.6835,-83.6665,57.45,65,75,5.66,CA,2021-10-03 18:50:15
407,Borogontsy,62.6683,131.1683,24.91,92,11,4.34,RU,2021-10-03 18:50:16
408,Laguna,38.421,-121.4238,88.65,29,1,4.61,US,2021-10-03 18:50:16
409,Benguela,-12.5763,13.4055,72.0,80,90,4.18,AO,2021-10-03 18:50:17
410,Kanchanaburi,14.6333,99.1,74.89,93,100,2.93,TH,2021-10-03 18:50:17
411,Chara,56.9064,118.2631,28.45,71,39,2.19,RU,2021-10-03 18:45:20
412,Faanui,-16.4833,-151.75,78.69,70,17,12.01,PF,2021-10-03 18:50:18
413,Oblivskaya,48.5362,42.5014,45.66,47,100,8.95,RU,2021-10-03 18:50:18
414,Barcelona,41.3888,2.159,75.54,81,20,5.75,ES,2021-10-03 18:50:19
415,Rtishchevo,52.2604,43.7874,41.77,78,11,7.11,RU,2021-10-03 18:50:19
416,Cockburn Town,21.4612,-71.1419,84.16,70,75,6.91,TC,2021-10-03 18:50:20
417,Chikwawa,-16.0335,34.8009,87.31,30,3,3.13,MW,2021-10-03 18:50:20
418,Dikson,73.5069,80.5464,34.79,98,100,23.38,RU,2021-10-03 18:50:20
419,Ginir,7.1333,40.7,62.67,77,100,2.91,ET,2021-10-03 18:50:21
420,Tiarei,-17.5333,-149.3333,80.62,76,7,8.84,PF,2021-10-03 18:46:14
421,Sirnak,37.5228,42.4594,63.27,37,0,4.25,TR,2021-10-03 18:50:21
422,Daoukro,7.0591,-3.9631,75.15,95,100,1.88,CI,2021-10-03 18:50:22
423,Nanortalik,60.1432,-45.2371,40.82,72,0,5.23,GL,2021-10-03 18:49:45
424,Mardan,34.2019,72.0525,81.14,69,0,3.65,PK,2021-10-03 18:50:22
425,Okato,-39.2,173.8833,59.41,98,100,11.03,NZ,2021-10-03 18:50:23
426,Ternate,0.8,127.4,80.55,79,100,5.19,ID,2021-10-03 18:50:23
427,Bethel,41.3712,-73.414,77.47,63,40,5.75,US,2021-10-03 18:50:23
428,Paita,-5.0892,-81.1144,73.96,69,11,16.55,PE,2021-10-03 18:50:24
429,Havoysund,70.9963,24.6622,50.88,74,100,32.48,NO,2021-10-03 18:50:24
430,Namatanai,-3.6667,152.4333,79.12,79,100,4.59,PG,2021-10-03 18:50:24
431,Kahului,20.8947,-156.47,81.97,72,20,4.61,US,2021-10-03 18:50:25
432,Nijar,36.9665,-2.206,69.87,78,0,26.46,ES,2021-10-03 18:50:25
433,Puqi,29.7167,113.8833,80.98,64,0,6.71,CN,2021-10-03 18:50:26
434,Hudson Bay,52.85,-102.3842,70.11,23,100,9.1,CA,2021-10-03 18:50:26
435,Mahina,-17.5065,-149.489,80.37,69,20,3.44,PF,2021-10-03 18:50:26
436,Bembereke,10.2283,2.6634,77.4,73,18,3.56,BJ,2021-10-03 18:50:27
437,Ialibu,-6.2821,143.9935,52.88,97,16,2.66,PG,2021-10-03 18:50:27
438,Shipitsyno,61.2806,46.5208,43.72,84,100,1.52,RU,2021-10-03 18:50:28
439,Najran,17.4924,44.1277,84.85,30,84,3.18,SA,2021-10-03 18:50:28
440,Constitucion,-35.3333,-72.4167,59.11,53,0,19.62,CL,2021-10-03 18:47:34
441,Kushima,31.4583,131.2333,69.53,75,0,6.2,JP,2021-10-03 18:50:29
442,Griffith,41.5284,-87.4237,78.73,82,90,1.01,US,2021-10-03 18:50:29
443,Adre,13.4667,22.2,81.45,35,56,5.03,TD,2021-10-03 18:50:29
444,Roma,43.2128,-75.4557,64.26,93,90,9.22,US,2021-10-03 18:48:42
445,Sisimiut,66.9395,-53.6735,37.33,72,15,3.71,GL,2021-10-03 18:50:30
446,Ahipara,-35.1667,173.1667,60.26,98,100,8.05,NZ,2021-10-03 18:50:30
447,Ballina,-28.8667,153.5667,57.78,94,32,0.0,AU,2021-10-03 18:50:31
448,Mount Isa,-20.7333,139.5,76.77,23,40,6.91,AU,2021-10-03 18:50:31
449,Pedernales,18.0384,-71.744,81.12,67,100,13.82,DO,2021-10-03 18:50:31
450,Charters Towers,-20.1,146.2667,67.53,95,5,8.55,AU,2021-10-03 18:50:32
451,Ati,13.2154,18.3353,89.2,39,55,10.65,TD,2021-10-03 18:50:33
452,Hermitage,41.2334,-80.4487,70.34,90,90,9.22,US,2021-10-03 18:50:33
453,Mersing,2.4312,103.8405,76.91,94,93,6.91,MY,2021-10-03 18:50:33
454,Vieux-Habitants,16.0589,-61.7659,88.72,70,15,14.09,GP,2021-10-03 18:50:34
455,Margate,51.3813,1.3862,56.03,77,0,1.01,GB,2021-10-03 18:50:34
456,Tevaitoa,-16.7833,-151.5,78.31,73,15,11.65,PF,2021-10-03 18:50:35
457,Karratha,-20.7377,116.8463,70.23,68,0,11.14,AU,2021-10-03 18:45:48
458,Batagay-Alyta,67.8006,130.4114,16.47,89,34,2.37,RU,2021-10-03 18:50:35
459,Cairns,-16.9167,145.7667,74.07,96,9,0.0,AU,2021-10-03 18:50:36
460,Uray,60.1247,64.7758,31.21,79,99,7.05,RU,2021-10-03 18:50:36
461,Lasa,46.6166,10.7002,58.08,97,89,5.59,IT,2021-10-03 18:50:37
462,Pontianak,-0.0333,109.3333,75.18,100,90,2.3,ID,2021-10-03 18:48:56
463,Alofi,-19.0595,-169.9187,75.09,88,59,13.8,NU,2021-10-03 18:50:37
464,Umm Kaddadah,13.6017,26.6876,91.26,19,100,10.45,SD,2021-10-03 18:50:37
465,Muzhi,65.3667,64.6667,29.55,75,23,4.97,RU,2021-10-03 18:50:38
466,Pandan,14.0453,124.1694,80.58,88,100,14.16,PH,2021-10-03 18:50:38
467,Beringovskiy,63.05,179.3167,38.55,99,100,4.23,RU,2021-10-03 18:50:39
468,Cap Malheureux,-19.9842,57.6142,72.46,75,3,8.99,MU,2021-10-03 18:45:50
469,Muisne,0.6,-80.0333,86.11,76,69,12.21,EC,2021-10-03 18:50:39
470,Marsh Harbour,26.5412,-77.0636,80.92,64,0,10.87,BS,2021-10-03 18:48:08
471,Kedrovyy,56.1667,91.8167,23.41,84,96,2.48,RU,2021-10-03 18:50:40
472,Faya,18.3851,42.4509,66.72,42,100,0.87,SA,2021-10-03 18:46:16
473,Siocon,7.7061,122.1353,77.58,93,100,10.56,PH,2021-10-03 18:50:41
474,Lakselv,70.0513,24.9718,51.62,66,75,28.77,NO,2021-10-03 18:50:03
475,Tshane,-24.0196,21.8684,59.68,19,0,8.97,BW,2021-10-03 18:50:41
476,Rio Grande,-32.035,-52.0986,68.11,77,100,18.19,BR,2021-10-03 18:50:41
477,Phan Thiet,10.9333,108.1,76.62,89,100,3.02,VN,2021-10-03 18:46:01
478,Mehamn,71.0357,27.8492,51.75,62,20,25.32,NO,2021-10-03 18:47:49
479,Zhigalovo,54.8097,105.1578,32.34,90,100,1.97,RU,2021-10-03 18:50:42
480,Vanavara,60.34,102.2797,30.58,94,68,4.36,RU,2021-10-03 18:49:36
481,Bama,11.5221,13.6856,84.42,31,10,4.05,NG,2021-10-03 18:50:42
482,Alice Springs,-23.7,133.8833,54.95,47,0,0.0,AU,2021-10-03 18:50:43
483,Cognac,45.5,-0.25,58.91,72,0,2.3,FR,2021-10-03 18:50:43
484,Mae Hong Son,19.3003,97.9685,73.09,96,12,0.92,TH,2021-10-03 18:50:44
485,Kirakira,-10.4544,161.9205,78.55,85,63,2.24,SB,2021-10-03 18:50:44
486,Omboue,-1.5746,9.2618,76.8,84,100,8.43,GA,2021-10-03 18:50:44
487,Jilib,0.4883,42.7854,75.83,83,6,9.71,SO,2021-10-03 18:50:45
488,Clyde River,70.4692,-68.5914,39.43,87,90,2.3,CA,2021-10-03 18:50:45
489,Hirara,24.8,125.2833,83.03,72,0,20.98,JP,2021-10-03 18:49:09
490,Celestun,20.8667,-90.4,87.64,60,61,10.74,MX,2021-10-03 18:50:27
491,Agirish,61.9247,63.0231,27.97,85,10,3.85,RU,2021-10-03 18:50:46
492,Zabol,32.25,67.25,59.02,27,0,12.91,AF,2021-10-03 18:50:46
493,Alexandria,31.2156,29.9553,75.16,64,40,12.66,EG,2021-10-03 18:46:59
494,College,64.8569,-147.8028,35.58,96,75,4.61,US,2021-10-03 18:50:47
495,Nabire,-3.3667,135.4833,75.0,91,100,3.69,ID,2021-10-03 18:50:47
496,Zemio,5.0314,25.1361,70.23,92,79,3.42,CF,2021-10-03 18:50:48
497,Onverwacht,5.5833,-55.1833,93.2,52,40,3.44,SR,2021-10-03 18:50:48
498,Igrim,63.1906,64.4162,28.92,77,8,4.16,RU,2021-10-03 18:50:48
499,Kavaratti,10.5669,72.642,81.63,79,100,10.67,IN,2021-10-03 18:50:49
500,Nanakuli,21.3906,-158.1547,79.7,80,40,5.75,US,2021-10-03 18:50:49
501,Mayumba,-3.432,10.6554,76.48,83,96,6.85,GA,2021-10-03 18:50:49
502,Anadyr,64.75,177.4833,37.9,86,40,8.01,RU,2021-10-03 18:50:50
503,Sur,22.5667,59.5289,83.1,77,100,16.6,OM,2021-10-03 18:50:50
504,Dzhuryn,49.0329,25.5839,54.25,59,27,14.94,UA,2021-10-03 18:50:50
505,La Suiza,9.8524,-83.6133,81.61,80,100,4.54,CR,2021-10-03 18:50:51
506,Yanji,42.9075,129.5078,59.04,97,100,3.83,CN,2021-10-03 18:50:52
507,Padang,-0.9492,100.3543,77.43,87,94,2.71,ID,2021-10-03 18:50:53
508,Edgewater,28.9889,-80.9023,91.13,51,6,8.5,US,2021-10-03 18:50:53
509,Nagram,26.6167,81.1333,78.85,71,4,2.21,IN,2021-10-03 18:50:54
510,Vila Franca Do Campo,37.7167,-25.4333,75.2,83,99,4.23,PT,2021-10-03 18:50:54
511,Meridian,43.6121,-116.3915,76.15,26,1,1.99,US,2021-10-03 18:50:54
512,Abalak,58.1286,68.5944,31.62,83,100,9.66,RU,2021-10-03 18:50:55
513,Vila Velha,-20.3297,-40.2925,85.95,54,0,14.97,BR,2021-10-03 18:50:43
514,Mbanza-Ngungu,-5.25,14.8667,75.18,71,84,5.12,CD,2021-10-03 18:50:04
515,Sola,-13.8833,167.55,79.52,77,33,7.83,VU,2021-10-03 18:50:55
516,Bajil,15.0584,43.2851,87.13,50,100,5.73,YE,2021-10-03 18:50:56
517,Caravelas,-17.7125,-39.2481,80.08,72,5,14.32,BR,2021-10-03 18:50:56
518,Bugyi,47.2275,19.1466,64.92,47,8,10.33,HU,2021-10-03 18:50:56
519,Timiryazevskoye,56.49,84.8769,35.1,91,100,4.97,RU,2021-10-03 18:50:57
520,General Roca,-39.0333,-67.5833,63.0,17,0,16.11,AR,2021-10-03 18:50:57
521,Virginia Beach,36.8529,-75.978,87.03,56,75,12.66,US,2021-10-03 18:49:21
522,Ribeirao Bonito,-22.0667,-48.1761,85.75,47,33,11.86,BR,2021-10-03 18:50:58
523,Dicabisagan,17.0818,122.4157,78.06,90,100,4.61,PH,2021-10-03 18:50:58
524,Fort Nelson,58.8053,-122.7002,44.19,61,75,4.61,CA,2021-10-03 18:50:59
525,Straumen,63.8709,11.2999,64.4,72,100,19.35,NO,2021-10-03 18:50:59
526,Odienne,9.51,-7.5692,77.27,77,44,1.12,CI,2021-10-03 18:50:59
527,Palu,-0.8917,119.8707,75.56,96,100,2.44,ID,2021-10-03 18:51:00
528,Lagos,6.5833,3.75,77.65,90,33,4.29,NG,2021-10-03 18:51:00
529,Loukhi,66.0764,33.0381,44.4,87,8,8.08,RU,2021-10-03 18:51:01
530,Sjovegan,68.8726,17.8474,55.63,83,100,10.25,NO,2021-10-03 18:51:01
531,Gravdal,68.1214,13.5031,53.49,71,75,21.85,NO,2021-10-03 18:46:14
532,Laramie,41.3114,-105.5911,69.17,21,1,5.99,US,2021-10-03 18:51:02
533,Laukaa,58.7372,29.8453,44.71,88,5,7.83,RU,2021-10-03 18:51:02
534,Coquimbo,-29.9533,-71.3436,62.33,59,0,13.8,CL,2021-10-03 18:51:03
535,San Luis,-33.295,-66.3356,64.24,16,0,9.06,AR,2021-10-03 18:47:48
536,Aden,12.7794,45.0367,88.56,58,100,11.36,YE,2021-10-03 18:51:03
537,Camacha,33.0833,-16.3333,71.02,83,40,12.66,PT,2021-10-03 18:51:04
538,Mendi,-6.1761,143.6513,51.6,97,40,3.36,PG,2021-10-03 18:51:04
539,Channel-Port Aux Basques,47.5702,-59.1367,55.17,72,66,12.73,CA,2021-10-03 18:51:05
540,Westport,41.1415,-73.3579,79.29,60,1,1.01,US,2021-10-03 18:51:05
541,Teya,60.3778,92.6267,33.21,98,100,2.68,RU,2021-10-03 18:51:05
542,Auki,-8.7676,160.7034,76.28,88,19,3.18,SB,2021-10-03 18:50:31
543,Queenstown,-31.8976,26.8753,45.57,80,20,14.27,ZA,2021-10-03 18:51:06
544,Lashio,22.9333,97.75,66.33,99,98,0.56,MM,2021-10-03 18:51:07
545,Coahuayana,18.7333,-103.6833,89.62,56,100,6.02,MX,2021-10-03 18:51:07
546,Ust-Barguzin,53.45,108.9833,36.36,80,100,0.96,RU,2021-10-03 18:51:07
547,Avera,33.194,-82.5271,87.44,41,80,4.54,US,2021-10-03 18:46:16
548,Port-Gentil,-0.7193,8.7815,78.76,83,75,11.5,GA,2021-10-03 18:51:08
549,Moroni,-11.7022,43.2551,78.8,69,20,18.41,KM,2021-10-03 18:51:09
550,Flagstaff,35.1981,-111.6513,71.89,40,75,5.01,US,2021-10-03 18:51:09
551,Arlit,18.7369,7.3853,92.32,11,0,7.54,NE,2021-10-03 18:51:09
552,Asau,46.4333,26.4,50.76,90,0,2.06,RO,2021-10-03 18:51:10
553,Lavumisa,-27.31,31.892,58.57,82,100,5.73,SZ,2021-10-03 18:51:10
554,Hondo,32.45,130.2,72.95,76,0,5.14,JP,2021-10-03 18:51:11
555,Allanridge,-27.7543,26.6438,59.54,25,0,9.06,ZA,2021-10-03 18:51:11
556,Arrifes,37.7667,-25.7,73.24,88,75,5.75,PT,2021-10-03 18:51:12
557,Comodoro Rivadavia,-45.8667,-67.5,64.26,27,40,23.02,AR,2021-10-03 18:51:12
558,Mezhdurechensk,53.6942,88.0603,30.36,93,100,2.62,RU,2021-10-03 18:51:12
559,Horta,38.5333,-28.6333,73.04,83,20,11.5,PT,2021-10-03 18:46:25
560,Proddatur,14.7333,78.55,79.86,76,0,5.68,IN,2021-10-03 18:51:13
561,Inta,66.0317,60.1659,31.35,86,63,7.05,RU,2021-10-03 18:51:13
562,Uruzgan,32.8333,66.0,59.74,31,0,1.03,AF,2021-10-03 18:51:14
563,Bilibino,68.0546,166.4372,12.52,97,89,3.51,RU,2021-10-03 18:49:54
564,Loudi,27.7344,111.9944,77.99,60,0,1.72,CN,2021-10-03 18:51:14
565,Inirida,3.8653,-67.9239,85.12,71,100,1.03,CO,2021-10-03 18:51:14
566,Krasnyy Chikoy,50.3643,108.7512,30.36,97,91,2.68,RU,2021-10-03 18:51:15
567,Viedma,-40.8135,-62.9967,60.91,28,3,16.28,AR,2021-10-03 18:51:15
568,Nyazepetrovsk,56.0531,59.6028,31.59,77,100,3.87,RU,2021-10-03 18:51:16
569,Pietersburg,-23.9045,29.4688,58.05,82,20,3.44,ZA,2021-10-03 18:51:16
570,Vanimo,-2.6741,141.3028,76.1,86,95,3.2,PG,2021-10-03 18:51:16
571,Ulaangom,49.9811,92.0667,33.44,61,33,4.72,MN,2021-10-03 18:51:17
572,Lososina,48.9975,140.3106,44.13,92,100,12.84,RU,2021-10-03 18:51:17
573,Suzzara,44.9919,10.7431,71.02,75,77,6.4,IT,2021-10-03 18:51:17
574,Daru,-9.0763,143.2092,76.41,89,28,3.8,PG,2021-10-03 18:51:18
575,Verkhoturye,58.8627,60.8054,28.33,90,98,5.12,RU,2021-10-03 18:51:18
576,Aban,56.67,96.06,31.69,77,100,3.58,RU,2021-10-03 18:51:18
577,Elban,50.1018,136.5094,37.47,86,6,2.24,RU,2021-10-03 18:51:19
578,Ambovombe,-25.1667,46.0833,71.71,81,1,6.17,MG,2021-10-03 18:51:19
579,Gisborne,-38.6533,178.0042,57.94,80,100,5.03,NZ,2021-10-03 18:47:28
580,Untsukul,42.7115,46.7866,50.27,94,100,3.56,RU,2021-10-03 18:51:20
581,Santa Isabel Do Rio Negro,-0.4139,-65.0192,87.55,63,100,1.48,BR,2021-10-03 18:51:20
582,Banda Aceh,5.5577,95.3222,79.79,82,69,8.34,ID,2021-10-03 18:51:20
583,Ust-Kuyga,70.0167,135.6,19.98,95,96,4.68,RU,2021-10-03 18:51:21
584,Shache,38.4167,77.2406,59.18,27,100,13.58,CN,2021-10-03 18:51:21
585,Eyl,7.9803,49.8164,78.3,84,66,17.76,SO,2021-10-03 18:51:21
586,Vaitape,-16.5167,-151.75,78.69,70,18,12.06,PF,2021-10-03 18:51:22
587,Marabba,12.35,32.1833,84.67,52,100,14.16,SD,2021-10-03 18:51:22
588,Astana,51.1801,71.446,35.55,93,75,4.47,KZ,2021-10-03 18:51:22
589,Victoria Point,-27.5833,153.3,66.49,90,5,4.79,AU,2021-10-03 18:51:23
590,Beyneu,45.3167,55.2,53.74,31,86,7.05,KZ,2021-10-03 18:51:23
591,Nkhata Bay,-11.6066,34.2907,78.1,56,8,2.93,MW,2021-10-03 18:51:24
592,Mizdah,31.4451,12.9801,75.88,37,8,12.46,LY,2021-10-03 18:51:24
593,Chimore,-16.9833,-65.1333,91.04,46,98,3.47,BO,2021-10-03 18:51:24
594,Calafell,41.2,1.5683,74.75,75,24,3.0,ES,2021-10-03 18:51:25
595,Shirokiy,49.758,129.523,33.33,83,2,7.54,RU,2021-10-03 18:51:25
596,Elizabeth City,36.2946,-76.2511,87.03,59,20,8.01,US,2021-10-03 18:51:23
597,Rondonopolis,-16.4708,-54.6356,90.05,42,87,12.21,BR,2021-10-03 18:51:25
598,Abnub,27.2696,31.1511,77.22,38,0,11.92,EG,2021-10-03 18:51:26
599,Oxford,51.7522,-1.256,55.56,84,20,1.01,GB,2021-10-03 18:50:00
600,Alpena,45.0617,-83.4327,72.95,93,90,1.99,US,2021-10-03 18:47:48
601,Belyy,55.8402,32.9419,44.55,82,100,3.89,RU,2021-10-03 18:51:26
602,Kjollefjord,70.9457,27.3465,51.62,62,20,25.32,NO,2021-10-03 18:51:27
603,Hofgeismar,51.4833,9.4,67.48,72,0,14.97,DE,2021-10-03 18:51:27
604,Rawson,-43.3002,-65.1023,60.71,31,16,13.18,AR,2021-10-03 18:50:58
605,Pacific Grove,36.6177,-121.9166,93.15,42,1,3.0,US,2021-10-03 18:51:28
606,Adilcevaz,38.8039,42.7342,62.85,46,0,5.7,TR,2021-10-03 18:51:28
607,Mao,39.8885,4.2658,75.76,83,40,10.36,ES,2021-10-03 18:51:28
608,Lokosovo,61.1333,74.8167,27.16,95,31,7.49,RU,2021-10-03 18:51:29
609,Anrochte,51.5667,8.3333,57.15,81,100,10.38,DE,2021-10-03 18:51:29
610,Serra,-20.1286,-40.3078,85.46,54,0,14.97,BR,2021-10-03 18:51:30
611,Kinkala,-4.3614,14.7644,80.91,72,86,3.36,CG,2021-10-03 18:51:30
612,Kimbe,-5.5502,150.1429,74.98,91,77,3.62,PG,2021-10-03 18:51:30
613,Telemaco Borba,-24.3239,-50.6156,70.47,93,99,1.9,BR,2021-10-03 18:51:31
614,Gweta,-20.1833,25.2333,80.78,12,0,10.07,BW,2021-10-03 18:51:31
615,Strezhevoy,60.7333,77.5889,31.98,91,17,5.99,RU,2021-10-03 18:51:32
616,Dunedin,-45.8742,170.5036,46.87,92,100,12.71,NZ,2021-10-03 18:51:32
617,Port Shepstone,-30.7414,30.455,61.47,62,100,4.41,ZA,2021-10-03 18:51:32
618,Tilichiki,60.4667,166.1,37.0,94,100,18.77,RU,2021-10-03 18:50:10
619,Fatehpur,25.9333,80.8,84.45,65,39,5.01,IN,2021-10-03 18:51:33
620,Puerto Escondido,15.85,-97.0667,86.31,69,26,7.83,MX,2021-10-03 18:51:33
621,Shu,43.5983,73.7614,48.78,34,97,4.32,KZ,2021-10-03 18:51:34
622,Awjilah,29.1081,21.2869,75.81,41,0,8.01,LY,2021-10-03 18:51:34
623,San Juan,-31.5375,-68.5364,70.74,13,0,5.61,AR,2021-10-03 18:51:34
624,Taiobeiras,-15.8078,-42.2331,93.9,13,8,8.79,BR,2021-10-03 18:51:35
625,Sovetskiy,61.3614,63.5842,28.49,82,14,4.79,RU,2021-10-03 18:51:35
626,Kamenka,51.3223,42.7678,44.64,69,0,6.96,RU,2021-10-03 18:51:36
627,Olafsvik,64.8945,-23.7142,41.25,90,100,35.03,IS,2021-10-03 18:51:36
628,Gornopravdinsk,60.05,69.9,31.06,88,100,7.85,RU,2021-10-03 18:51:37
629,Ouadda,8.0777,22.4007,69.04,93,100,0.72,CF,2021-10-03 18:51:37
630,Thoen,17.6129,99.2161,73.85,98,72,1.05,TH,2021-10-03 18:51:37
631,Luderitz,-26.6481,15.1594,60.31,50,78,25.55,NA,2021-10-03 18:51:38
632,Lata,40.1629,-8.3327,61.81,77,7,4.41,PT,2021-10-03 18:51:38
633,Warwick,41.7001,-71.4162,75.85,72,100,1.99,US,2021-10-03 18:51:38
634,Shihezi,44.3,86.0333,46.45,49,2,6.24,CN,2021-10-03 18:51:39
635,Cap-Aux-Meules,47.3821,-61.8597,51.85,82,90,5.75,CA,2021-10-03 18:51:39
636,Bardiyah,31.7561,25.0865,71.51,62,0,11.25,LY,2021-10-03 18:51:40
637,Shawnee,39.05,-95.7669,80.94,56,75,1.01,US,2021-10-03 18:51:40
638,Vao,-22.6667,167.4833,71.65,90,0,2.84,NC,2021-10-03 18:51:41
639,Inverell,-29.7833,151.1167,59.67,66,4,6.17,AU,2021-10-03 18:51:41
640,Collie,-33.3667,116.15,39.97,89,0,2.86,AU,2021-10-03 18:51:41
641,Bonoua,5.2741,-3.595,78.42,86,82,4.43,CI,2021-10-03 18:51:42
642,Tremedal,-14.9758,-41.4108,94.59,17,5,7.7,BR,2021-10-03 18:51:42
643,Turbat,26.0023,63.044,84.79,64,15,6.85,PK,2021-10-03 18:51:42
644,Singaraja,-8.112,115.0882,76.96,82,29,5.46,ID,2021-10-03 18:51:43
645,Lerwick,60.1545,-1.1494,50.0,89,100,36.08,GB,2021-10-03 18:51:43
646,Togur,58.3631,82.8265,33.19,92,100,5.53,RU,2021-10-03 18:51:43
647,Ornskoldsvik,63.2909,18.7153,51.62,100,90,19.57,SE,2021-10-03 18:51:44
648,Key West,24.5557,-81.7826,86.0,68,75,10.36,US,2021-10-03 18:48:07
649,Puerto El Triunfo,13.2833,-88.55,86.23,69,24,8.72,SV,2021-10-03 18:51:44
650,Pitiquito,30.7,-112.0833,89.38,22,100,0.34,MX,2021-10-03 18:51:45
651,Jinji,23.2281,110.8261,76.98,85,0,2.19,CN,2021-10-03 18:51:45
652,Batemans Bay,-35.7167,150.1833,55.9,94,63,3.76,AU,2021-10-03 18:51:46
653,Fort Walton Beach,30.4058,-86.6188,83.08,79,90,7.0,US,2021-10-03 18:51:36
654,Sakakah,29.9697,40.2064,83.77,26,0,12.19,SA,2021-10-03 18:51:46
655,Churapcha,62.0025,132.4325,25.18,93,9,5.55,RU,2021-10-03 18:51:47
656,Katobu,-4.9408,122.5276,73.56,93,13,2.48,ID,2021-10-03 18:51:47
657,Sarkand,45.41,79.9186,41.34,43,100,4.34,KZ,2021-10-03 18:51:48
658,Mahebourg,-20.4081,57.7,72.25,88,75,13.8,MU,2021-10-03 18:51:48
659,Tamiahua,21.2667,-97.45,86.09,63,35,9.35,MX,2021-10-03 18:51:48
660,Fairlie,55.756,-4.8556,54.01,88,91,5.01,GB,2021-10-03 18:51:49
661,La Palma,33.8464,-118.0467,98.94,25,40,3.0,US,2021-10-03 18:51:49
662,Damghan,36.1683,54.348,63.66,54,0,1.45,IR,2021-10-03 18:51:49
663,Yeppoon,-23.1333,150.7333,73.18,93,2,3.71,AU,2021-10-03 18:51:50
664,Jiblah,13.9216,44.1467,61.25,83,100,6.49,YE,2021-10-03 18:51:50
665,Cienaga,11.007,-74.2476,89.74,67,100,7.58,CO,2021-10-03 18:51:51
666,Sao Joao Da Barra,-21.6403,-41.0511,84.29,77,3,21.09,BR,2021-10-03 18:51:51
667,Santa Rosa,14.3122,121.1114,80.58,85,100,4.9,PH,2021-10-03 18:49:53
668,Neiafu,-18.65,-173.9833,75.88,94,40,11.5,TO,2021-10-03 18:51:52
669,Honningsvag,70.9821,25.9704,51.33,71,75,19.57,NO,2021-10-03 18:51:52
670,Changying,52.8733,123.3213,28.27,82,2,2.26,CN,2021-10-03 18:51:52
671,Inndyr,67.0338,14.0276,57.24,76,100,14.7,NO,2021-10-03 18:51:53
672,Guerrero Negro,27.9769,-114.0611,85.93,39,24,3.38,MX,2021-10-03 18:51:53
673,Fairbanks,64.8378,-147.7164,34.3,95,90,8.05,US,2021-10-03 18:50:04
674,Quatre Cocos,-20.2078,57.7625,72.09,80,18,15.93,MU,2021-10-03 18:51:54
675,Rio Gallegos,-51.6226,-69.2181,60.85,23,75,31.07,AR,2021-10-03 18:51:25
676,Pevek,69.7008,170.3133,23.65,91,99,8.37,RU,2021-10-03 18:51:54
677,Kapit,2.0167,112.9333,73.72,99,100,1.19,MY,2021-10-03 18:51:55
678,Meybod,32.2501,54.0166,75.22,26,0,8.7,IR,2021-10-03 18:51:55
679,Sinnamary,5.3833,-52.95,85.86,64,35,11.39,GF,2021-10-03 18:51:55
680,Nokaneng,-19.6667,22.2667,72.91,13,53,7.85,BW,2021-10-03 18:51:39
681,Salekhard,66.53,66.6019,28.18,80,82,7.54,RU,2021-10-03 18:51:56
682,Cascais,38.6979,-9.4215,66.06,62,0,8.99,PT,2021-10-03 18:50:07
683,Bubaque,11.2833,-15.8333,82.35,73,96,4.74,GW,2021-10-03 18:51:56
